stop_id,stop_name,stop_lat,stop_lon                                                                                                                   
04040,Zaragoza-Delicias,41.658649 ,-0.911615                                                                                                          
06001,Librilla (apd),37.8865569,-1.3471673                                                                                                            
06002,Alhama De Murcia,37.8493837,-1.4145055                                                                                                          
06003,Totana,37.7635101,-1.4956127                                                                                                                    
06004,La Hoya (apd),37.7037338,-1.5954024                                                                                                             
06005,Lorca-San Diego (apd),37.6805717,-1.6858944                                                                                                     
06006,Lorca Sutullena,37.6725714,-1.6959002                                                                                                           
06007,Puerto Lumbreras (apt),37.5809194,-1.731775                                                                                                     
06008,Alcantarilla Los Romanos,37.9642527,-1.2170108                                                                                                  
06100,Almendricos,37.4748912,-1.7796447                                                                                                               
07001,Pulpi (apd),37.3999194,-1.7501361                                                                                                               
07003,Jaravia (apd),37.3925027,-1.693175                                                                                                              
07004,águilas,37.4098333,-1.5725777                                                                                                                   
07007,Aguilas-Lb,37.4119055,-1.5859138                                                                                                                
10000,Madrid-Principe Pio,40.4215361,-3.7190805                                                                                                       
10001,Aravaca (apd-Cgd),40.4484027,-3.7855512                                                                                                         
10002,Pozuelo,40.4473443,-3.8002865                                                                                                                   
10005,Las Rozas (apd),40.4942255,-3.8681086                                                                                                           
10007,Majadahond,40.4742448,-3.8452712                                                                                                                
10010,El Barrial,40.4653336,-3.8078526                                                                                                                
10100,Pinar De Las Rozas,40.5222566,-3.8822585                                                                                                        
10101,Las Matas,40.5523275,-3.8967651                                                                                                                 
10103,Torrelodones,40.5745499,-3.9565955                                                                                                              
10104,Galapagar-La Navata,40.6002664,-3.9822646                                                                                                       
10200,Villalba De Guadarrama,40.6265067,-4.0081871                                                                                                    
10201,San Yago,40.6178786,-4.0312349                                                                                                                  
10202,Las Zorreras-Navalquejigo,40.6092725,-4.0463634                                                                                                 
10203,El Escorial,40.5852811,-4.1324479                                                                                                               
10204,Zarzalejo,40.538710 ,-4.158180                                                                                                                  
10205,Robledo De Chavela,40.520802 ,-4.246774                                                                                                         
10206,Santa María De La Alameda-Peguerinos,40.568937 ,-4.269332                                                                                       
11305,Brinkola-OÑati,43.019887 ,-2.334469                                                                                                             
11306,Legazpi,43.052263 ,-2.329396                                                                                                                    
11400,Zumarraga,43.088273 ,-2.318462                                                                                                                  
11402,Ormaiztegui,43.040151 ,-2.255831                                                                                                                
11404,Beasain,43.046174 ,-2.203234                                                                                                                    
11405,Ordizia/Ordicia,43.052583 ,-2.181019                                                                                                            
11406,Itsasondo(apd),43.068955 ,-2.162736                                                                                                             
11407,Legorreta,43.085187 ,-2.14555                                                                                                                   
11408,Ikazteguieta (apd),43.094977 ,-2.126252                                                                                                         
11409,Alegia,43.10214  ,-2.099346                                                                                                                     
11500,Tolosa,43.131936 ,-2.085247                                                                                                                     
11501,Tolosa Centro,43.13597  ,-2.078512                                                                                                              
11502,Anoeta,43.165233 ,-2.071624                                                                                                                     
11503,Villabona-Zizurkil,43.189391 ,-2.055641                                                                                                         
11504,Andoain-Centro,43.214729 ,-2.020394                                                                                                             
11505,Andoain,43.221715 ,-2.016357                                                                                                                    
11506,Urnieta,43.243416 ,-1.991492                                                                                                                    
11507,Hernani-Centro,43.261977 ,-1.975726                                                                                                             
11508,Hernani,43.272283 ,-1.964175                                                                                                                    
11509,Martutene,43.29442  ,-1.956981                                                                                                                  
11510,Loiola,43.304772 ,-1.964289                                                                                                                     
11511,San Sebastián/Donostia,43.317669 ,-1.976704                                                                                                     
11512,Gros,43.322077 ,-1.972632                                                                                                                       
11513,Ategorrieta (apd),43.321814 ,-1.967016                                                                                                          
11514,Herrera (apd),43.320009 ,-1.917946                                                                                                              
11515,Pasaia,43.318764 ,-1.904324                                                                                                                     
11516,Lezo-Errenteria,43.313544 ,-1.895015                                                                                                            
11518,Ventas De Irun,43.331008 ,-1.816203                                                                                                             
11522,Intxaurrondo,43.32068  ,-1.952632                                                                                                               
11600,Irun,43.339582 ,-1.800192                                                                                                                       
12001,Los Negrales,40.6385681,-4.0220307                                                                                                              
12002,Alpedrete-Mataespesa,40.6580931,-4.0350813                                                                                                      
12004,Collado Mediano,40.6927600,-4.0359164                                                                                                           
12005,Los Molinos-Guadarrama,40.7066368,-4.0673999                                                                                                    
12006,Cercedilla,40.7375282,-4.0664502                                                                                                                
12020,Puerto Navacerrada (apt),40.7842464,-4.0050168                                                                                                  
12023,Los Cotos (apt),40.8223493,-3.9644101                                                                                                           
13100,OrduÑa,42.994971 ,-3.014669                                                                                                                     
13101,Amurrio,43.042794 ,-3.004019                                                                                                                    
13102,Salbio,43.064293 ,-2.995857                                                                                                                     
13103,Luiaondo,43.093554 ,-2.999662                                                                                                                   
13104,Santa Cruz De Llodio,43.132448 ,-2.970197                                                                                                       
13106,Llodio,43.142721 ,-2.959916                                                                                                                     
13107,Areta,43.146085 ,-2.945719                                                                                                                      
13108,Arbide,43.159117 ,-2.929893                                                                                                                     
13109,Arrankudiaga (apd),43.172858 ,-2.915437                                                                                                         
13110,Ugao-Miraballes,43.180117 ,-2.903493                                                                                                            
13111,Arrigorriaga,43.214271 ,-2.888918                                                                                                               
13112,Basauri (apd),43.226952 ,-2.888881                                                                                                              
13113,Bidebieta-Basauri,43.238817 ,-2.892993                                                                                                          
13114,Ollargan,43.244697 ,-2.912016                                                                                                                   
13115,Bakiola,43.176332 ,-2.909743                                                                                                                    
13116,IÑarratxu,43.017154 ,-3.011418                                                                                                                  
13117,Arakaldo,43.154817 ,-2.938893                                                                                                                   
13118,Abaroa-Sm,43.236846 ,-2.889762                                                                                                                  
13119,La PeÑa,43.239764 ,-2.923413                                                                                                                    
13120,Miribilla,43.25325  ,-2.9294                                                                                                                    
13121,Amurrio Iparralde,43.0513   ,-2.99965                                                                                                           
13200,Bilbao-Abando Indalecio Prieto,43.259609 ,-2.92915                                                                                              
13205,Zabalburu,43.256752 ,-2.932127                                                                                                                  
13206,Ametzola,43.255428 ,-2.940762                                                                                                                   
13207,Autonomia,43.257784 ,-2.94615                                                                                                                   
13208,S. Mames,43.261825 ,-2.948816                                                                                                                   
13303,Olabeaga,43.264166 ,-2.957191                                                                                                                   
13304,Zorrotza,43.277780 ,-2.972117                                                                                                                   
13305,Lutxana-Barakaldo,43.288106 ,-2.975335                                                                                                          
13400,Desertu-Barakaldo,43.300475 ,-2.984948                                                                                                          
13401,Sestao,43.310243 ,-2.997303                                                                                                                     
13402,La Iberia (apd),43.311861 ,-3.00425                                                                                                             
13403,Portugalete,43.318728 ,-3.015567                                                                                                                
13404,PeÑota,43.329766 ,-3.031149                                                                                                                     
13405,Santurtzi,43.335671 ,-3.041196                                                                                                                  
13501,Galindo,43.300847 ,-3.021017                                                                                                                    
13502,Trapaga,43.30335  ,-3.0351                                                                                                                      
13503,Valle De Trapaga/Trapagaran,43.307763 ,-3.039786                                                                                                
13504,Ortuella,43.310251 ,-3.058531                                                                                                                   
13505,Putxeta,43.31623  ,-3.089951                                                                                                                    
13506,Muskiz,43.321472 ,-3.112317                                                                                                                     
13507,Urioste,43.306411 ,-3.046882                                                                                                                    
13508,Gallarta (apd),43.320472 ,-3.073542                                                                                                             
13509,Sagrada F.,43.308212 ,-3.052896                                                                                                                 
14202,Reinosa,42.995158 ,-4.139917                                                                                                                    
14203,Lantueno-Santiurde,43.064618 ,-4.086294                                                                                                         
14204,Pesquera,43.083718 ,-4.079594                                                                                                                   
14206,Bárcena,43.130561 ,-4.056662                                                                                                                    
14207,Molledo-Portolín,43.146897 ,-4.043563                                                                                                           
14208,Santa Cruz De IguÑa,43.167067 ,-4.048194                                                                                                        
14209,Las Fraguas,43.194318 ,-4.057394                                                                                                                
14210,Los Corrales De Buelna,43.257961 ,-4.064679                                                                                                     
14211,Las Caldas De Besaya,43.295518 ,-4.075294                                                                                                       
14212,Viernoles,43.327437 ,-4.042475                                                                                                                  
14213,Torrelavega,43.33974  ,-4.02896                                                                                                                 
14214,Sierrapando,43.347118 ,-3.991694                                                                                                                
14215,Zurita,43.357826 ,-3.979697                                                                                                                     
14216,Renedo,43.355636 ,-3.953732                                                                                                                     
14217,Parbayón,43.375214 ,-3.90092                                                                                                                    
14218,Guarnizo,43.398271 ,-3.850226                                                                                                                   
14219,Boo,43.404295 ,-3.8432                                                                                                                          
14220,MaliaÑo,43.41664  ,-3.841901                                                                                                                    
14221,Muriedas,43.4265260,-3.8482400                                                                                                                  
14223,Santander,43.458575 ,-3.811223                                                                                                                  
14230,Valdecilla,43.450492 ,-3.838889                                                                                                                 
14231,Nueva MontaÑa,43.445244 ,-3.846303                                                                                                              
14232,Lombera,43.276219 ,-4.071153                                                                                                                    
14233,Río Ebro,43.025658 ,-4.097112                                                                                                                   
14234,Pujayo,43.123726 ,-4.08172                                                                                                                      
14235,Arenas De IguÑa,43.186618 ,-4.054394                                                                                                            
14236,VioÑo,43.360717 ,-3.964874                                                                                                                      
14237,Muriedas-Bahía,43.435311 ,-3.850821                                                                                                             
15118,Fierros,43.07152  ,-5.769496                                                                                                                    
15119,La Frecha,43.09722  ,-5.797896                                                                                                                  
15120,Campumanes,43.11112  ,-5.814196                                                                                                                 
15121,La Cobertoria,43.130231 ,-5.812825                                                                                                              
15122,La Pola,43.158942 ,-5.831075                                                                                                                    
15123,Vil.layana,43.186778 ,-5.803633                                                                                                                 
15200,Uxo,43.20702  ,-5.791496                                                                                                                        
15202,Santuyano,43.214944 ,-5.785817                                                                                                                  
15203,Mieres Del Camín,43.250027 ,-5.78028                                                                                                            
15205,AblaÑa,43.267493 ,-5.804693                                                                                                                     
15206,La Perea,43.277234 ,-5.812279                                                                                                                   
15207,Olloniego/Lluniego,43.29622  ,-5.819295                                                                                                         
15208,Soto Rei/Soto De Rey,43.30762  ,-5.856895                                                                                                       
15209,Les Segaes/Las Segadas De Abajo,43.312842 ,-5.86918                                                                                             
15210,El Caleyu,43.33042  ,-5.868395                                                                                                                  
15211,Oviedo/Uviéu,43.366841 ,-5.854263                                                                                                               
15212,Lugones/Llugones,43.40347  ,-5.812935                                                                                                           
15217,La Corredoria,43.383422 ,-5.830233                                                                                                              
15218,Llamaquique,43.355864 ,-5.855475                                                                                                                
15300,Lugo De Llanera,43.445519 ,-5.817438                                                                                                            
15301,Villabona,43.46082  ,-5.825595                                                                                                                  
15302,Serín,43.50482  ,-5.780395                                                                                                                      
15303,Montiana,43.527578 ,-5.735516                                                                                                                   
15305,Tabladiello,43.474597 ,-5.802526                                                                                                                
15400,VeriÑa,43.54092  ,-5.725018                                                                                                                     
15401,La Calzada,43.534132 ,-5.70981                                                                                                                  
15410,Gijón/Xixón,43.535175 ,-5.698318                                                                                                                
16001,Santolaya,43.31742  ,-5.812495                                                                                                                  
16002,Veguín,43.33152  ,-5.772595                                                                                                                     
16005,PeÑarrubia,43.32212  ,-5.722295                                                                                                                 
16006,Barros,43.3178079,-5.7109228                                                                                                                    
16008,La Felguera,43.304594 ,-5.692439                                                                                                                
16009,Sama,43.291503 ,-5.679332                                                                                                                       
16010,CiaÑu,43.289192 ,-5.66793                                                                                                                       
16011,L'entregu/El Entrego,43.289009 ,-5.631813                                                                                                       
16301,FerroÑes,43.475556 ,-5.861372                                                                                                                   
16302,Cancienes,43.51582  ,-5.869095                                                                                                                  
16400,Nubledo/Nubleo,43.52212  ,-5.869295                                                                                                             
16401,Villalegre,43.536871 ,-5.896108                                                                                                                 
16402,La Rocica,43.5467   ,-5.9052                                                                                                                    
16403,Avilés,43.561191 ,-5.922576                                                                                                                     
16405,San Xuan,43.58952  ,-5.932595                                                                                                                   
16408,Los Campos,43.536675 ,-5.885115                                                                                                                 
17000,Madrid-Chamartín-Clara Campoamor,40.4720993,-3.6824687                                                                                          
17001,Fuencarral (apt),40.5015242,-3.6824808                                                                                                          
17003,El Goloso (apd),40.5587539,-3.7139504                                                                                                           
17004,Tres Cantos (apt),40.5985252,-3.7155822                                                                                                         
17005,Colmenar Viejo,40.6451853,-3.7765198                                                                                                            
17009,Universidad Canto Blanco,40.5438226,-3.7001834                                                                                                  
18000,Madrid - Atocha Cercanías,40.4061556,-3.6889579                                                                                                 
18001,Madrid-Recoletos,40.4234123,-3.6908535                                                                                                          
18002,Madrid-Nuevos Ministerios,40.4466171,-3.6923408                                                                                                 
18003,M.alvaro-P,40.3956167,-3.6777094                                                                                                                
18004,Delicias,40.4003715,-3.692763                                                                                                                   
18005,Pirámides,40.4025917,-3.7113344                                                                                                                 
18101,Madrid-Sol,40.4168778,-3.7032107                                                                                                                
19001,U.p.comill,40.554058 ,-3.683335                                                                                                                 
19002,Valdelasfu,40.5474433,-3.6543338                                                                                                                
19003,Alcob.sseb,40.546566 ,-3.6351819                                                                                                                
35001,Leganés,40.3286349,-3.7711552                                                                                                                   
35002,Fuenlabrada,40.2833747,-3.7994538                                                                                                               
35009,Zarzaquemada,40.3406009,-3.7482111                                                                                                              
35010,La Serna,40.2967500,-3.7926450                                                                                                                  
35011,P.polvoran,40.3125398,-3.7835135                                                                                                                
35012,Humanes,40.2556903,-3.8286016                                                                                                                   
35600,Madrid-Aluche,40.3856315,-3.7607442                                                                                                             
35601,Fanjul,40.3836517,-3.7685682                                                                                                                    
35602,Las Aguilas,40.3811836,-3.7802739                                                                                                               
35603,Cuatro Vientos,40.3777633,-3.7914876                                                                                                            
35604,San Jose De Valderas,40.3565467,-3.8155715                                                                                                      
35605,Alcorcon,40.3502521,-3.8320940                                                                                                                  
35606,Mostoles,40.3284890,-3.8638111                                                                                                                  
35607,Mostoles El Soto,40.330971 ,-3.882441                                                                                                           
35608,Laguna,40.3991775,-3.7442226                                                                                                                    
35609,Embajador.,40.4051246,-3.7026286                                                                                                                
35610,L. Retamas,40.3420458,-3.8424115                                                                                                                
35702,Doce Octub,40.3790374,-3.6988513                                                                                                                
35703,Orcasitas,40.3666963,-3.7046002                                                                                                                 
35704,Puente Alcocer,40.3504002,-3.7051062                                                                                                            
37001,Madrid-Villaverde Alto,40.3415512,-3.7115464                                                                                                    
37002,Getafe Centro,40.3098934,-3.7340237                                                                                                             
37010,Margaritas,40.3229367,-3.7272747                                                                                                                
37011,Getafe S-3,40.2882215,-3.7375106                                                                                                                
37012,Parla,40.2411556,-3.7692726                                                                                                                     
40113,Cazalla-Constantina,37.9327717,-5.7044058                                                                                                       
40114,Fabrica Del Pedroso,37.8624888,-5.7403111                                                                                                       
40115,Pedroso,37.8373261,-5.7624477                                                                                                                   
40118,Arenillas (apt-Cgd),37.7009472,-5.7502583                                                                                                       
40119,Villanueva Del Río-Minas,37.6616071,-5.7121550                                                                                                  
40121,Alcolea Del Río,37.6354388,-5.7308277                                                                                                           
40122,Tocina,37.6092611,-5.7316916                                                                                                                    
43000,San Jeronimo,37.434667 ,-5.982378                                                                                                               
43002,Camas,37.4017138,-6.0371611                                                                                                                     
43003,Villanueva Ariscal Y Oliv. (apt),37.4070916,-6.1482194                                                                                          
43004,Sanlucar La Mayor (apd-Cgd),37.3814027,-6.1939333                                                                                               
43005,Benacazón,37.3567611,-6.2082805                                                                                                                 
43026,Valencina-Santiponce,37.42963  ,-6.065401                                                                                                       
43027,Salteras,37.4106611,-6.0988333                                                                                                                  
50600,Lora Del Río,37.6613027,-5.5295472                                                                                                              
50602,Guadajoz,37.5813944,-5.6699222                                                                                                                  
50700,Los Rosales,37.5898444,-5.7261638                                                                                                               
50701,Cantillana,37.5742444,-5.8031861                                                                                                                
50702,Brenes,37.5462666,-5.8667722                                                                                                                    
50703,La Rinconada,37.4800777,-5.9401246                                                                                                              
50704,El CaÑamo,37.488    ,-5.9312                                                                                                                    
51003,Sevilla-Santa Justa,37.3921277,-5.9752694                                                                                                       
51009,P.congreso,37.4037820,-5.9362556                                                                                                                
51010,P.pio Palm,37.3708446,-5.9394732                                                                                                                
51050,Cartuja,37.4078985,-6.0098499                                                                                                                   
51051,Est.olimp,37.4172225,-6.0074834                                                                                                                 
51100,Sevilla-San Bernardo,37.3775194,-5.9796                                                                                                         
51103,Dos Hermanas,37.2872   ,-5.9235192                                                                                                              
51104,Don Rodrigo (apt),37.2330760,-5.8467420                                                                                                         
51110,Sevilla-Virgen Del Rocío,37.3628   ,-5.9760111                                                                                                  
51111,Bellavista,37.3214916,-5.9641861                                                                                                                
51112,Cantaelgallo,37.2781444,-5.9104055                                                                                                              
51113,Jardines De Hércules,37.33273  ,-5.964503                                                                                                       
51200,Utrera,37.1845444,-5.7907966                                                                                                                    
51202,Las Cabezas De San Juan,37.0193453,-5.9465554                                                                                                   
51203,Lebrija,36.9299735,-6.0864165                                                                                                                   
51205,Jerez Aeropuerto,36.751147 ,-6.066664                                                                                                           
51300,Jerez De La Frontera,36.6800290,-6.1264716                                                                                                      
51400,Puerto De Santa María,36.6037962,-6.2171641                                                                                                     
51401,Puerto Real,36.5309277,-6.1861944                                                                                                               
51402,San Fernando Centro,36.4757694,-6.1940833                                                                                                       
51404,Segunda Aguada,36.5134777,-6.2770083                                                                                                            
51405,Cádiz,36.5290083,-6.2882055                                                                                                                     
51406,San Fernando-Bahía Sur,36.4680361,-6.2067638                                                                                                    
51407,Cadiz-Cortadura,36.4943222,-6.2682444                                                                                                           
51409,Cádiz-Estadio,36.5028972,-6.2720638                                                                                                             
51414,San Severiano,36.5215444,-6.28075                                                                                                               
51415,Las Aletas,36.5446083,-6.199                                                                                                                    
51416,Universidad,36.5300472,-6.2050222                                                                                                               
51417,Valdelagrana,36.5848055,-6.2160444                                                                                                              
54405,álora,36.819825 ,-4.6994424                                                                                                                     
54406,Pizarra,36.7640611,-4.7116694                                                                                                                   
54407,Aljaima,36.7331166,-4.6644194                                                                                                                   
54408,Cártama,36.7337555,-4.6082320                                                                                                                   
54410,Campanillas (apt),36.7047333,-4.5456194                                                                                                         
54412,Los Prados,36.6985157,-4.4781625                                                                                                                
54413,Malaga-M.z.,36.7102500,-4.4329010                                                                                                               
54501,Victoria Kent,36.7011222,-4.4544444                                                                                                             
54503,Guadalhorce (apd),36.6920138,-4.4838277                                                                                                         
54505,Málaga Aeropuerto,36.6757   ,-4.48725                                                                                                           
54508,La Colina (apd),36.6418944,-4.4926472                                                                                                           
54509,Torremolinos,36.6225361,-4.4995805                                                                                                              
54510,El Pinillo (apd),36.6098194,-4.5153694                                                                                                          
54511,Benalmádena/Arroyo De La Miel,36.5990583,-4.5362333                                                                                             
54512,Torremuelle-Benalmadena (apt),36.5822333,-4.5671138                                                                                             
54513,Carvajal (apt),36.5701333,-4.593975                                                                                                             
54514,Torreblanca (apd),36.5649222,-4.6067666                                                                                                         
54515,Los Boliches (apd),36.5549140,-4.6143560                                                                                                        
54516,Fuengirola,36.5429388,-4.6228027                                                                                                                
54517,Malaga C.a,36.7180455,-4.4167842                                                                                                                
54518,Los Alamos (apd),36.6450055,-4.4851111                                                                                                          
54519,Montemar A,36.6138388,-4.5091305                                                                                                                
54520,Plza.mayor,36.6561722,-4.4803138                                                                                                                
60100,Madrid-Villaverde Bajo,40.3536351,-3.6839896                                                                                                    
60101,San Cristóbal Industrial,40.3319352,-3.6986743                                                                                                  
60102,Getafe Industrial (alicante),40.3054448,-3.7078159                                                                                              
60103,Pinto,40.2427782,-3.7036626                                                                                                                     
60104,Valdemoro,40.1960018,-3.6649777                                                                                                                 
60105,Ciempozuelos,40.1590740,-3.6101107                                                                                                              
60107,San Cristobal De Los Angeles,40.3408068,-3.6839943                                                                                              
60109,El Casar,40.3186333,-3.7100083                                                                                                                  
60200,Aranjuez,40.0348585,-3.6182315                                                                                                                  
60911,Alicante/Alacant,38.34445  ,-0.4950527                                                                                                          
60913,Sant Vicent Centre,38.3972495,-0.5326435                                                                                                        
60914,Universidad De Alicante,38.3847998,-0.5281080                                                                                                   
61200,Murcia,37.97465  ,-1.1299555                                                                                                                    
62001,Beniel,38.0447361,-0.9994472                                                                                                                    
62002,Orihuela-Miguel Hernández,38.0779194,-0.94445                                                                                                   
62003,Callosa De Segura,38.1235694,-0.8732888                                                                                                         
62100,Albatera-Catral,38.1670972,-0.8383583                                                                                                           
62101,Crevillent,38.2245805,-0.7817972                                                                                                                
62102,Elche/Elx Carrús,38.2690055,-0.7063555                                                                                                          
62103,Elche Parque/Elx Parc,38.2717784,-0.6952109                                                                                                     
62104,Torrellano,38.2896027,-0.5825138                                                                                                                
62108,Elx-Mercancias,38.2785340,-0.6536870                                                                                                            
62109,Sant Gabriel,38.3287722,-0.5089444                                                                                                              
64003,Moixent/Mogente,38.8776138,-0.7536722                                                                                                           
64004,Vallada (apt-Cgd),38.9088166,-0.6902666                                                                                                         
64005,Montesa (apt),38.9428444,-0.6411055                                                                                                             
64006,Alcudia,38.9690638,-0.5864111                                                                                                                   
64007,L'ènova Manuel,39.0501935,-0.4778516                                                                                                            
64100,Xàtiva,38.9920972,-0.5244888                                                                                                                    
64102,La Pobla Llarga,39.083475 ,-0.4697027                                                                                                           
64103,Carcaixent,39.1204694,-0.4543833                                                                                                                
64104,Alzira,39.1531194,-0.4506000                                                                                                                    
64105,Algemesí,39.1931111,-0.4409083                                                                                                                  
64107,Benifaió-Almussafes,39.2842194,-0.4299500                                                                                                       
64200,Silla,39.3617388,-0.4149472                                                                                                                     
64201,Catarroja,39.3999611,-0.3991916                                                                                                                 
64202,Massanassa,39.4091638,-0.3953194                                                                                                                
64203,Alfafar-Benetússer,39.4223277,-0.3926                                                                                                           
65000,Valencia-Estaciò Del Nord,39.4669346,-0.3771842                                                                                                 
65001,Roca-Cúper,39.5261277,-0.3237777                                                                                                                
65002,Valencia F.s.l-Hospital La Fe,39.4414666,-0.3698944                                                                                             
65003,Valencia-Cabanyal,39.4689527,-0.3345694                                                                                                         
65005,Albuixech,39.5433   ,-0.3205777                                                                                                                 
65006,Massalfassar-Albuixech,39.5556333,-0.3182861                                                                                                    
65007,El Puig,39.5882111,-0.3116472                                                                                                                   
65008,Puçol,39.6171903,-0.3048578                                                                                                                     
65200,Sagunt/Sagunto,39.6756611,-0.2715972                                                                                                            
65201,Les Valls,39.7192801,-0.2397542                                                                                                                 
65202,Almenara,39.7487555,-0.2183805                                                                                                                  
65203,La Llosa,39.7680118,-0.2030695                                                                                                                  
65204,Chilches,39.7825944,-0.1903333                                                                                                                  
65205,Moncofa,39.8208638,-0.1626861                                                                                                                   
65206,Nules-La Vilavella,39.8531222,-0.1527555                                                                                                        
65207,Burriana-Alquerías NiÑo Perdido,39.8964287,-0.1038666                                                                                           
65208,Vila-Real,39.9330222,-0.0967722                                                                                                                 
65209,Almassora/Almazora,39.9548444,-0.0767722                                                                                                        
65300,Castellò,39.9882552,-0.0524126                                                                                                                  
65304,Orpesa/Oropesa Del Mar,40.0922580,0.13986100                                                                                                    
65306,Torreblanca,40.2122110,0.19877900                                                                                                               
65308,Alcalà De Xivert,40.3046900,0.22871700                                                                                                          
65311,Benicarló-PeÑíscola,40.4276390,0.41521700                                                                                                       
65312,Vinaròs,40.4716820,0.45572700                                                                                                                   
65314,Ulldecona -Alcanar-La Senia,40.5959240,0.44927000                                                                                               
65318,Benicàssim,40.0579451,0.05776460                                                                                                                
65400,Tortosa,40.8073390,0.52293700                                                                                                                   
65401,Camp-Redó,40.7591350,0.55583400                                                                                                                 
65402,L'aldea-Amposta-Tortosa,40.7535420,0.61431400                                                                                                   
65403,Camarles-Deltebre,40.7747570,0.67164700                                                                                                         
65404,L'ampolla-El Perello-Deltebre,40.8120110,0.70822100                                                                                             
65405,L'ametlla De Mar,40.8861880,0.80042700                                                                                                          
65407,L'hospitalet De L'infant,40.9958630,0.92073300                                                                                                  
65409,Cambrils,41.0816480,1.0460550                                                                                                                   
65411,Salou - Port Aventura,41.0870700,1.14548600                                                                                                     
65420,L'hospitalet De L'infant,40.9958630,0.92073300                                                                                                  
65422,Cambrils,41.0816480,1.0460550                                                                                                                   
66200,Utiel,39.5717140,-1.2036330                                                                                                                     
66201,San Antonio De Requena,39.5222444,-1.1503527                                                                                                    
66202,Requena,39.4912   ,-1.104675                                                                                                                    
66203,El Rebollar,39.4772611,-1.0115972                                                                                                               
66204,Siete Aguas,39.4568638,-0.9030444                                                                                                               
66205,Venta Mina-Siete Aguas,39.4542861,-0.8701861                                                                                                    
66206,BuÑol,39.427175 ,-0.7868888                                                                                                                     
66207,Chiva,39.4710444,-0.7228888                                                                                                                     
66208,Cheste,39.4908222,-0.6862916                                                                                                                    
66209,Loriguilla-Reva,39.4857027,-0.5673694                                                                                                           
66210,Circuit Ricardo Tormo,39.4955527,-0.6255277                                                                                                     
66211,Aldaia,39.4610444,-0.4632388                                                                                                                    
66212,Valencia Sant Isidre,39.4526833,-0.4058694                                                                                                      
66214,Xirivella-Alqueries,39.4625527,-0.4321861                                                                                                       
67211,Caudiel (apt),39.9473166,-0.5720277                                                                                                             
67212,Jérica-Viver (apt),39.9146309,-0.5689031                                                                                                        
67213,Navajas (apt),39.8740271,-0.5060235                                                                                                             
67214,Segorbe-Arrabal,39.85445  ,-0.4932694                                                                                                           
67215,Segorbe,39.8469583,-0.4824138                                                                                                                   
67216,Algimia-C,39.7460638,-0.3673135                                                                                                                 
67217,Soneja,39.81255  ,-0.4318972                                                                                                                    
67221,Estivella-Albalat Dels Tarongers,39.7063753,-0.3483269                                                                                          
67223,Gilet (apd),39.6792861,-0.3206055                                                                                                               
69101,El Romani,39.3029777,-0.3941055                                                                                                                 
69102,Sollana (apt),39.2793083,-0.3793138                                                                                                             
69103,Sueca,39.2055611,-0.307825                                                                                                                      
69104,Cullera,39.1778305,-0.2632361                                                                                                                   
69105,Tavernes De La Valldigna,39.0790027,-0.2262833                                                                                                  
69107,Xeraco,39.0262694,-0.2146694                                                                                                                    
69110,Gandía,38.9702805,-0.1797722                                                                                                                    
69111,Platja-Gan,38.9913319,-0.1611829                                                                                                                
69200,Xiriv_l´al,39.4636472,-0.4209361                                                                                                                
70001,Vallecas,40.3820447,-3.6246888                                                                                                                  
70002,Asamblea De Mad. Entrevías,40.3816176,-3.6679819                                                                                                
70003,El Pozo,40.3760524,-3.6562354                                                                                                                   
70100,Vicálvaro,40.4012112,-3.5959811                                                                                                                 
70101,San Fernando Henares,40.4425370,-3.5344609                                                                                                      
70102,Torrejón De Ardoz,40.4547384,-3.4797415                                                                                                         
70103,Alcalá De Henares,40.4889113,-3.3662523                                                                                                         
70104,Meco (apd-Cgd),40.5344356,-3.2990455                                                                                                            
70105,Azuqueca,40.5610437,-3.2653569                                                                                                                  
70107,Alcalá Henares-Universidad (apd),40.5052933,-3.3352443                                                                                          
70108,Coslada (apd),40.4232210,-3.5611137                                                                                                             
70109,Santa Eugenia,40.3869128,-3.6089604                                                                                                             
70111,La Garena,40.4804888,-3.3930758                                                                                                                 
70112,Soto Del Henares,40.4638889,-3.4422222                                                                                                          
70200,Guadalajara,40.6441032,-3.1822298                                                                                                               
70800,Casetas,41.72265  ,-1.020175                                                                                                                    
70801,Utebo,41.7105305,-0.9979222                                                                                                                     
70806,Zaragoza Portillo,41.651563 ,-0.89466                                                                                                           
70807,Zaragoza Goya,41.644103 ,-0.891188                                                                                                              
71100,Zaragoza Miraflores,41.62977  ,-0.863064                                                                                                        
71102,El Burgo De Ebro,41.5665270,-0.7398390                                                                                                          
71103,Fuentes De Ebro,41.5150650,-0.6186250                                                                                                           
71104,Pina De Ebro,41.4800970,-0.5572770                                                                                                              
71105,Quinto,41.4195280,-0.4906730                                                                                                                    
71108,La Zaida-Sástago,41.3205420,-0.4271150                                                                                                          
71109,Azaila,41.2761780,-0.4858230                                                                                                                    
71200,La Puebla De Híjar,41.2244000,-0.4385950                                                                                                        
71201,Samper,41.1821830,-0.3687610                                                                                                                    
71202,Escatrón,41.2126740,-0.2899790                                                                                                                  
71203,Chiprana,41.2315810,-0.1544950                                                                                                                  
71204,Caspe,41.2397380,-0.0427010                                                                                                                     
71205,Val De Pilas,41.2300560,0.07014500                                                                                                              
71206,Fabara,41.2344050,0.14328400                                                                                                                    
71207,Nonaspe,41.2137880,0.24247200                                                                                                                   
71208,Faió-La Pobla De Massaluca (fayón),41.2252470,0.35027500                                                                                        
71209,Riba-Roja D'ebre,41.2484510,0.48088800                                                                                                          
71210,Flix,41.2295020,0.54007100                                                                                                                      
71211,Ascó,41.1824790,0.56896400                                                                                                                      
71300,Mora La Nova,41.1063740,0.65289300                                                                                                              
71301,Els Guiamets,41.0934620,0.74717300                                                                                                              
71302,Capçanes,41.1020570,0.78033000                                                                                                                  
71303,Marçà-Falset,41.1309450,0.81032800                                                                                                              
71304,Pradell De La Teixeta,41.1332400,0.85837100                                                                                                     
71305,Duesaigües-L'argentera,41.1437760,0.92094200                                                                                                    
71306,Riudecanyes-Botarell,41.1400270,0.97564800                                                                                                      
71307,Les Borges Del Camp,41.1655250,1.02077400                                                                                                       
71400,Reus,41.1605240,1.09997900                                                                                                                      
71401,Vila-Seca,41.1127440,1.15038900                                                                                                                 
71500,Tarragona,41.1116240,1.25321400                                                                                                                 
71502,Altafulla-Tamarit,41.1364460,1.37453000                                                                                                         
71503,Torredembarra,41.1428570,1.40566000                                                                                                             
71600,Sant Vicenç De Calders,41.186245 ,1.526315                                                                                                      
71601,Calafell,41.188736 ,1.567244                                                                                                                    
71602,Segur De Calafell,41.192544 ,1.607745                                                                                                           
71603,Cunit,41.195912 ,1.631307                                                                                                                       
71604,Cubelles,41.204112 ,1.671807                                                                                                                    
71700,Vilanova I La Geltrú,41.219993 ,1.733331                                                                                                        
71701,Sitges,41.237757 ,1.81694                                                                                                                       
71703,Garraf (apt),41.254712 ,1.904007                                                                                                                
71704,Platja De Castelldefels,41.265442 ,1.943333                                                                                                     
71705,Castelldefels,41.26816  ,1.964203                                                                                                               
71706,Gavà,41.304209 ,2.012793                                                                                                                        
71707,El Prat De Llobregat,41.330762 ,2.088982                                                                                                        
71708,Bellvitge,41.354261 ,2.115549                                                                                                                   
71709,Viladecans,41.309407 ,2.0277                                                                                                                    
71801,Barcelona-Sants,41.37922  ,2.140624                                                                                                             
71802,Barcelona-Passeig De Gracia,41.392281 ,2.164896                                                                                                 
72100,Roda De Bara,41.1840520,1.44015300                                                                                                              
72101,Roda De Mar,41.1863150,1.45514430                                                                                                               
72201,El Vendrell,41.220531 ,1.537775                                                                                                                 
72202,L'arboc,41.273412 ,1.600516                                                                                                                     
72203,Els Monjos,41.316708 ,1.662007                                                                                                                  
72204,Vilafranca Del Penedes,41.344856 ,1.703676                                                                                                      
72205,La Granada,41.370925 ,1.725083                                                                                                                  
72206,Lavern-Subirats (apd),41.395755 ,1.768162                                                                                                       
72207,Sant Sadurni D'anoia,41.419824 ,1.794186                                                                                                        
72208,Gelida (apd),41.442478 ,1.850896                                                                                                                
72209,Martorell,41.479459 ,1.929874                                                                                                                   
72210,Castellbisbal,41.473263 ,1.967619                                                                                                               
72211,El Papiol (apd),41.435304 ,2.002477                                                                                                             
72300,Molins De Rei,41.409953 ,2.020864                                                                                                               
72301,Sant Feliu De Llobregat,41.383049 ,2.048042                                                                                                     
72302,Sant Joan Despi (apd),41.368619 ,2.060305                                                                                                       
72303,Cornella,41.357469 ,2.070566                                                                                                                    
72305,L'hospitalet De Llobregat,41.364129 ,2.100766                                                                                                   
72400,El Prat Aeroport,41.303844 ,2.07218                                                                                                             
72501,Rubi,41.475318 ,2.037135                                                                                                                        
72502,Sant Cugat,41.481295 ,2.080439                                                                                                                  
72503,Cerdanyola Universiti,41.496992 ,2.115035                                                                                                       
73001,Puigverd De Lleida-Artesa De Lleida,41.5536500,0.73305800                                                                                       
73002,Juneda,41.5438790,0.82558400                                                                                                                    
73003,Les Borges Blanques,41.5214610,0.87771500                                                                                                       
73004,La Floresta,41.5042630,0.92430300                                                                                                               
73005,Vinaixa,41.4250770,0.97030800                                                                                                                   
73006,Vimbodí I Poblet,41.4026100,1.04600800                                                                                                          
73007,L'espluga De Francoli,41.4005250,1.10338900                                                                                                     
73008,Montblanc,41.3766480,1.16543100                                                                                                                 
73009,Vilaverd,41.3376020,1.17659900                                                                                                                  
73010,La Riba,41.3183540,1.18124800                                                                                                                   
73100,La Plana-Picamoixons,41.3059700,1.19766500                                                                                                      
73101,Alcover,41.2616580,1.17422800                                                                                                                   
73102,La Selva Del Camp,41.2102840,1.14407200                                                                                                         
75101,Alcoletge,41.6542670,0.68570700                                                                                                                 
75102,Vilanova De La Barca,41.6873810,0.72789800                                                                                                      
75103,Térmens,41.7165250,0.76304600                                                                                                                   
75104,Vallfogona De Balaguer,41.7557510,0.80561200                                                                                                    
75105,Balaguer,41.7893330,0.81475000                                                                                                                  
75106,Gerb,41.8233290,0.81202300                                                                                                                      
75107,Sant Llorenç De Montgai,41.8664090,0.83242400                                                                                                   
75108,Vilanova De La Sal,41.9120660,0.83030500                                                                                                        
75109,Santa LiÑa,41.9317760,0.85243300                                                                                                                
75110,Ager,42.0067390,0.85161700                                                                                                                      
75111,Cellers-Llimiana,42.0586990,0.88286800                                                                                                          
75112,Guardia De Tremp,42.1014190,0.88804700                                                                                                          
75113,Palau-Puigcercos,42.1469550,0.89244100                                                                                                          
75114,Tremp,42.1673640,0.89113700                                                                                                                     
75115,Salas De Pallars,42.2068450,0.94044700                                                                                                          
75116,La Pobla De Segur,42.2398540,0.96610700                                                                                                         
76001,Salomó,41.2234740,1.37661700                                                                                                                    
76002,Vilabella,41.2403120,1.31560100                                                                                                                 
76003,Nulles-Bràfim,41.2503060,1.29744900                                                                                                             
76004,Valls,41.2896300,1.25873400                                                                                                                     
77002,Montcada-Ripollet,41.496658 ,2.182072                                                                                                           
77003,Santa Perpetua De Mogoda,41.521426 ,2.193917                                                                                                    
77004,Mollet-Santa Rosa,41.535064 ,2.205846                                                                                                           
77005,Parets Del Vallés,41.560527 ,2.255996                                                                                                           
77006,Granollers-Canovelles,41.602832 ,2.274647                                                                                                       
77100,Les Franqueses Del Vallés,41.624639 ,2.298077                                                                                                   
77102,La Garriga,41.684575 ,2.288761                                                                                                                  
77103,Figaró,41.7233684,2.271161                                                                                                                      
77104,Sant Martí De Centelles,41.760542 ,2.24972                                                                                                      
77105,Centelles,41.797834 ,2.223428                                                                                                                   
77106,Els Hostalets De Balenyà,41.843129 ,2.250218                                                                                                    
77107,Balenyà,41.852564 ,2.264253                                                                                                                     
77109,Vic,41.930805 ,2.248776                                                                                                                         
77110,Manlleu,41.998912 ,2.269314                                                                                                                     
77111,Torelló,42.05217  ,2.259369                                                                                                                     
77112,Borgonyà (apd),42.065014 ,2.241286                                                                                                              
77113,Sant Quirze De Besora-Montesquiu,42.104658 ,2.216977                                                                                            
77114,La Farga De Bebié,42.130061 ,2.203924                                                                                                           
77200,Ripoll,42.195536 ,2.195977                                                                                                                      
77301,Campdevànol,42.221558 ,2.165877                                                                                                                 
77303,Ribes De Freser,42.301158 ,2.166078                                                                                                             
77304,Planoles (apt),42.313559 ,2.103078                                                                                                              
77305,Toses (apt),42.324189 ,2.029728                                                                                                                 
77306,La Molina,42.344529 ,1.956006                                                                                                                   
77307,Urtx-Alp (apt),42.375375 ,1.899526                                                                                                              
77309,Puigcerdà,42.428908 ,1.924085                                                                                                                   
77310,La Tour De Carol,42.458629 ,1.904703                                                                                                            
78005,Villanueva De Gállego,41.7655100,-0.8222040                                                                                                     
78100,Zuera,41.8771660,-0.7641720                                                                                                                     
78200,Tardienta,41.9757160,-0.5382230                                                                                                                 
78201,GraÑén,41.9380330,-0.3693290                                                                                                                    
78202,Marcen-PoleÑino,41.8819110,-0.2834560                                                                                                           
78203,SariÑena,41.8175290,-0.1707600                                                                                                                  
78300,Selgua,41.9063330,0.14818700                                                                                                                    
78301,Monzón-Río Cinca,41.9136790,0.19693900                                                                                                          
78302,Binéfar,41.8497680,0.29147800                                                                                                                   
78400,Lleida,41.6206960,0.63266900                                                                                                                    
78402,Bell-Lloc D'urgell,41.6316190,0.78154700                                                                                                        
78403,Mollerussa,41.6317790,0.89677500                                                                                                                
78404,Golmés,41.6359290,0.93086300                                                                                                                    
78405,Castellnou De Seana,41.6374640,0.96773600                                                                                                       
78406,Bellpuig,41.6325450,1.01299300                                                                                                                  
78407,Anglesola,41.6464480,1.07919200                                                                                                                 
78408,Tárrega,41.6503870,1.13896300                                                                                                                   
78500,Cervera,41.6736110,1.27477300                                                                                                                   
78501,Sant Guim De Freixenet,41.6559240,1.42053000                                                                                                    
78502,Sant Martí Sesgueioles,41.7012170,1.48620400                                                                                                    
78503,Calaf,41.7303340,1.51509700                                                                                                                     
78504,Seguers-Sant Pere Sallavinera,41.7479910,1.57416700                                                                                             
78505,Aguilar De Segarra,41.7389170,1.62372000                                                                                                        
78506,Rajadell,41.7331590,1.69627500                                                                                                                  
78600,Manresa,41.720129 ,1.82899                                                                                                                      
78604,Sant Vicenç De Castellet,41.667899 ,1.863451                                                                                                    
78605,Castellbell I El Vilar-Monistrol Monts,41.628059 ,1.869875                                                                                      
78606,Vacarisses,41.588024 ,1.913838                                                                                                                  
78607,Vacarisses-Torreblanca,41.577138 ,1.921807                                                                                                      
78609,Viladecavalls,41.565479 ,1.954342                                                                                                               
78610,Sant Miquel De Gonteres,41.568123 ,1.975712                                                                                                     
78700,Terrassa,41.570159 ,2.019075                                                                                                                    
78703,Sabadell Sud,41.53662  ,2.105617                                                                                                                
78704,Sabadell Centre,41.549572 ,2.114757                                                                                                             
78705,Barberá Del Vallés,41.507162 ,2.127558                                                                                                          
78706,Cerdanyola Del Vallés,41.492582 ,2.14763                                                                                                        
78707,Montcada I Reixac-Santa María,41.481232 ,2.166922                                                                                               
78708,Montcada I Reixac-Manresa,41.483996 ,2.185513                                                                                                   
78709,Sabadell Nord,41.562871 ,2.087794                                                                                                               
78710,Terrasa Est,41.567261 ,2.041561                                                                                                                 
78800,Montcada Bifurcació,41.468992 ,2.178904                                                                                                         
78801,Barcelona-Torre Del Baró,41.460945 ,2.181042                                                                                                    
78802,Sant Andreu Arenal,41.430893 ,2.183095                                                                                                          
78804,Barcelona-Arc De Triomf,41.391864 ,2.180076                                                                                                     
78805,Barcelona-Plaça De Catalunya,41.386726 ,2.166458                                                                                                
78806,Barcelona La Sagrera Meridiana,41.422638 ,2.187262                                                                                              
79004,Barcelona-Sant Andreu Comtal,41.435807 ,2.193572                                                                                                
79005,Montcada I Reixac,41.483833 ,2.188193                                                                                                           
79006,Mollet-Sant Fost,41.530069 ,2.215485                                                                                                            
79007,Montmelo,41.5519598,2.2517501                                                                                                                   
79009,Barcelona-Clot-Aragó,41.41745  ,2.192893                                                                                                        
79011,Llagosta,41.510428 ,2.199740                                                                                                                    
79100,Granollers Centre,41.594528 ,2.29107                                                                                                            
79101,Cardedeu,41.635258 ,2.360275                                                                                                                    
79102,Llinars Del Valles,41.636058 ,2.403675                                                                                                          
79103,Palautordera (apd),41.670899 ,2.452823                                                                                                          
79104,Sant Celoni,41.686024 ,2.491262                                                                                                                 
79105,Gualba,41.714078 ,2.533778                                                                                                                      
79106,Riells I Viabrea-Breda,41.723357 ,2.560075                                                                                                      
79107,Hostalric,41.747657 ,2.632175                                                                                                                   
79109,Les Franqueses-Granollers Nord,41.617306 ,2.292859                                                                                              
79200,Maçanet-Massanes,41.778657 ,2.678775                                                                                                            
79202,Sils,41.8076830,2.74486000                                                                                                                      
79203,Caldes De Malavella,41.8410980,2.80076500                                                                                                       
79204,Riudellots,41.8962320,2.81159900                                                                                                                
79205,Fornells De La Selva,41.9351570,2.80973200                                                                                                      
79300,Girona,41.9793030,2.81700600                                                                                                                    
79301,Celrà,42.0272300,2.87496900                                                                                                                     
79302,Bordils-Juià,42.0370680,2.91525500                                                                                                              
79303,Flaçà,42.0475960,2.95750600                                                                                                                     
79304,Sant Jordi Desvalls,42.0683190,2.96453300                                                                                                       
79305,Camallera,42.1223590,2.96544800                                                                                                                 
79306,Sant Miquel De Fluvià,42.1720870,2.98966300                                                                                                     
79308,Vilamalla,42.2162020,2.97787400                                                                                                                 
79309,Figueres,42.2650650,2.96878700                                                                                                                  
79311,Vilajuiga,42.3257390,3.08538500                                                                                                                 
79312,Llançà,42.3665949,3.14898700                                                                                                                    
79314,Colera,42.4070680,3.15426200                                                                                                                    
79315,Portbou,42.4244940,3.15785800                                                                                                                   
79316,Cerbère,42.4414760,3.16325900                                                                                                                   
79400,Barcelona-Estació De França,41.384089 ,2.187004                                                                                                 
79403,Sant Adrià De Besòs (apd),41.424665 ,2.230761                                                                                                   
79404,Badalona,41.445802 ,2.249257                                                                                                                    
79405,Montgat,41.466119 ,2.280042                                                                                                                     
79406,Montgat-Nord (p),41.471542 ,2.293911                                                                                                            
79407,El Masnou,41.477702 ,2.314362                                                                                                                   
79408,Ocata (apd),41.483293 ,2.337839                                                                                                                 
79409,Premiá De Mar Apeadero,41.488348 ,2.357075                                                                                                      
79410,Vilassar De Mar,41.501746 ,2.392842                                                                                                             
79412,Cabrera De Mar,41.504169 ,2.387135                                                                                                              
79500,Mataró,41.533245 ,2.445797                                                                                                                      
79501,Sant Andreu De Llavaneres (apt),41.55596  ,2.50184                                                                                              
79502,Caldes D'estrac,41.569216 ,2.527982                                                                                                             
79600,Arenys De Mar,41.578795 ,2.552336                                                                                                               
79601,Canet De Mar,41.587123 ,2.583146                                                                                                                
79602,Sant Pol De Mar,41.600184 ,2.627001                                                                                                             
79603,Calella,41.614691 ,2.666203                                                                                                                     
79604,Pineda De Mar,41.622203 ,2.693515                                                                                                               
79605,Malgrat Del Mar,41.642728 ,2.744502                                                                                                             
79606,Blanes,41.672594 ,2.769389                                                                                                                      
79607,Tordera,41.70643  ,2.721235                                                                                                                     
79608,Sta.susann,41.629763 ,2.714036                                                                                                                  
97100,Pitis,40.4954011,-3.7260638                                                                                                                     
97200,Mirasierra-Paco De Lucía,40.499662 ,-3.709016                                                                                                   
97201,Madrid-Ramón Y Cajal,40.4882980,-3.6946827                                                                                                      
98003,Fte De La Mora,40.4847940,-3.6628860                                                                                                            
98304,Valdebebas,40.482    ,-3.616292                                                                                                                 
98305,Madrid-Aeropuerto T4,40.49174  ,-3.593473                                                                                                       
